[
    {
      "id": 11819,
      "name": "CARLE WEST PHYSICIAN GROUP INC",
      "phoneNumber": 3096630222,
      "latitude": 40.4840273,
      "longitude": -88.9517829,
      "address": "Eastland Drive, Bloomington, IL 61710, United States of America",
      "city": "BLOOMINGTON",
      "state": "Illinois",
      "state_code": "IL",
      "country": "United States"
    },
    {
      "id": 11820,
      "name": "WABASH GENERAL HOSPITAL DISTRICT",
      "phoneNumber": 6182628621,
      "latitude": 38.431628,
      "longitude": -87.781059,
      "address": "College Drive, Mount Carmel, IL 62863, United States of America",
      "city": "MOUNT CARMEL",
      "state": "Illinois",
      "state_code": "IL",
      "country": "United States"
    },
    {
      "id": 11821,
      "name": "PRA BEHAVIORAL LLC",
      "phoneNumber": 8472402211,
      "latitude": 42.0432915,
      "longitude": -88.0372437,
      "address": "East Woodfield Road, Schaumburg, IL 60173, United States of America",
      "city": "SCHAUMBURG",
      "state": "Illinois",
      "state_code": "IL",
      "country": "United States"
    },
    {
      "id": 11822,
      "name": "ADVOCATE HEALTH AND HOSPITALS CORPORATION",
      "phoneNumber": 6307195454,
      "latitude": 41.7962135,
      "longitude": -88.012782,
      "address": "Warren Avenue, Downers Grove, IL 60515, United States of America",
      "city": "DOWNERS GROVE",
      "state": "Illinois",
      "state_code": "IL",
      "country": "United States"
    },
    {
      "id": 11823,
      "name": "ROUEEN RAFEYAN MD LTD",
      "phoneNumber": 3128656336,
      "latitude": 41.9204549,
      "longitude": -87.6933275,
      "address": "North Milwaukee Avenue, Chicago, IL 60647, United States of America",
      "city": "CHICAGO",
      "state": "Illinois",
      "state_code": "IL",
      "country": "United States"
    },
    {
      "id": 11824,
      "name": "GRAND PRAIRIE SERVICES",
      "phoneNumber": 7084441012,
      "latitude": 41.5061518,
      "longitude": -87.6409731,
      "address": "Lincoln Highway, Chicago Heights, IL 60411, United States of America",
      "city": "CHICAGO HEIGHTS",
      "state": "Illinois",
      "state_code": "IL",
      "country": "United States"
    },
    {
      "id": 11825,
      "name": "GRAND PRAIRIE SERVICES",
      "phoneNumber": 7084441012,
      "latitude": 41.5060126,
      "longitude": -87.6716206,
      "address": "Lincoln Highway, Chicago Heights, IL 60461, United States of America",
      "city": "CHICAGO HEIGHTS",
      "state": "Illinois",
      "state_code": "IL",
      "country": "United States"
    },
    {
      "id": 11826,
      "name": "GRAND PRAIRIE SERVICES",
      "phoneNumber": 7084441012,
      "latitude": 41.5458644,
      "longitude": -87.6939173,
      "address": "Kedzie Avenue, Flossmoor, IL 60422, United States of America",
      "city": "FLOSSMOOR",
      "state": "Illinois",
      "state_code": "IL",
      "country": "United States"
    },
    {
      "id": 11827,
      "name": "GRAND PRAIRIE SERVICES",
      "phoneNumber": 7084441012,
      "latitude": 41.5906757,
      "longitude": -87.7849001,
      "address": "Oak Park Avenue, Tinley Park, IL 60477, United States of America",
      "city": "TINLEY PARK",
      "state": "Illinois",
      "state_code": "IL",
      "country": "United States"
    },
    {
      "id": 11828,
      "name": "SOUTHERN ILLINOIS HEALTHCARE FOUNDATION, INC.",
      "phoneNumber": 6188572700,
      "latitude": 38.590186,
      "longitude": -90.1692755,
      "address": "Sauget, IL, United States of America",
      "city": "SAUGET",
      "state": "Illinois",
      "state_code": "IL",
      "country": "United States"
    },
    {
      "id": 11829,
      "name": "TOUCHETTE REGIONAL HOSPITAL INC",
      "phoneNumber": 3148721473,
      "latitude": 38.590186,
      "longitude": -90.1692755,
      "address": "Sauget, IL, United States of America",
      "city": "SAUGET",
      "state": "Illinois",
      "state_code": "IL",
      "country": "United States"
    },
    {
      "id": 11830,
      "name": "TOUCHETTE REGIONAL HOSPITAL INC",
      "phoneNumber": 3148721473,
      "latitude": 38.568031,
      "longitude": -90.103866,
      "address": "Bond Avenue, Centreville, IL 62207, United States of America",
      "city": "CENTREVILLE",
      "state": "Illinois",
      "state_code": "IL",
      "country": "United States"
    },
    {
      "id": 11831,
      "name": "",
      "phoneNumber": 7733487003,
      "latitude": 41.9371665,
      "longitude": -87.6394427,
      "address": "North Sheridan Road, Chicago, IL 60657, United States of America",
      "city": "CHICAGO",
      "state": "Illinois",
      "state_code": "IL",
      "country": "United States"
    },
    {
      "id": 11832,
      "name": "HEARTLAND ALLIANCE HEALTH",
      "phoneNumber": 7737514129,
      "latitude": 41.9693555,
      "longitude": -87.6484768,
      "address": "West Lawrence Avenue, Chicago, IL 60640, United States of America",
      "city": "CHICAGO",
      "state": "Illinois",
      "state_code": "IL",
      "country": "United States"
    },
    {
      "id": 11833,
      "name": "ADVOCATE HEALTH AND HOSPITALS CORPORATION",
      "phoneNumber": 8474591160,
      "latitude": 42.1532824,
      "longitude": -87.9588225,
      "address": "McHenry Road, Buffalo Grove, IL 60089, United States of America",
      "city": "BUFFALO GROVE",
      "state": "Illinois",
      "state_code": "IL",
      "country": "United States"
    },
    {
      "id": 11834,
      "name": "ADVOCATE HEALTH AND HOSPITALS CORPORATION",
      "phoneNumber": "",
      "latitude": 41.7235705,
      "longitude": -87.732089,
      "address": "Advocate Children's Hospital, 4440 West 95th Street, Oak Lawn, IL 60453, United States of America",
      "city": "OAK LAWN",
      "state": "Illinois",
      "state_code": "IL",
      "country": "United States"
    },
    {
      "id": 11835,
      "name": "MCCD PSYCHIATRY SERVICES PLLC",
      "phoneNumber": 9176345311,
      "latitude": 42.180363,
      "longitude": -87.9294277,
      "address": "Parkway Drive, Lincolnshire, IL 60069, United States of America",
      "city": "LINCOLNSHIRE",
      "state": "Illinois",
      "state_code": "IL",
      "country": "United States"
    },
    {
      "id": 11836,
      "name": "DUPAGE MEDICAL GROUP LTD",
      "phoneNumber": 6308932210,
      "latitude": 41.9477679,
      "longitude": -88.1193267,
      "address": "Stratford Drive, Bloomingdale, IL 60117, United States of America",
      "city": "BLOOMINGDALE",
      "state": "Illinois",
      "state_code": "IL",
      "country": "United States"
    },
    {
      "id": 11837,
      "name": "DUPAGE MEDICAL GROUP LTD",
      "phoneNumber": 6304326180,
      "latitude": 41.8079963,
      "longitude": -88.0748297,
      "address": "Warrenville Road, Lisle, IL 60189, United States of America",
      "city": "LISLE",
      "state": "Illinois",
      "state_code": "IL",
      "country": "United States"
    },
    {
      "id": 11838,
      "name": "METHODIST MEDICAL CENTER OF ILLINOIS",
      "phoneNumber": 3096723100,
      "latitude": 40.6965599,
      "longitude": -89.5945459,
      "address": "Main Street, Peoria, IL 61602, United States of America",
      "city": "PEORIA",
      "state": "Illinois",
      "state_code": "IL",
      "country": "United States"
    },
    {
      "id": 11839,
      "name": "ARROWLEAF",
      "phoneNumber": 61865830798,
      "latitude": 37.417504,
      "longitude": -88.8760004,
      "address": "Oliver Street, Vienna, IL 62995, United States of America",
      "city": "VIENNA",
      "state": "Illinois",
      "state_code": "IL",
      "country": "United States"
    },
    {
      "id": 11840,
      "name": "SIU PHYSICIANS AND SURGEONS INC",
      "phoneNumber": 2175458000,
      "latitude": 39.8080467,
      "longitude": -89.6818438,
      "address": "West Jefferson Street, Springfield, IL 62702, United States of America",
      "city": "SPRINGFIELD",
      "state": "Illinois",
      "state_code": "IL",
      "country": "United States"
    },
    {
      "id": 11841,
      "name": "BEHAVIORAL MEDICINE AND CONSULTING PC",
      "phoneNumber": 6304804660,
      "latitude": 41.8583463,
      "longitude": -88.1024684,
      "address": "South Naperville Road, Wheaton, IL 60187, United States of America",
      "city": "WHEATON",
      "state": "Illinois",
      "state_code": "IL",
      "country": "United States"
    },
    {
      "id": 11842,
      "name": "BEHAVIORAL MEDICINE AND CONSULTING PC",
      "phoneNumber": 6309334603,
      "latitude": 41.8326691,
      "longitude": -88.0110264,
      "address": "Highland Avenue, Downers Grove, IL 60515, United States of America",
      "city": "DOWNERS GROVE",
      "state": "Illinois",
      "state_code": "IL",
      "country": "United States"
    },
    {
      "id": 11843,
      "name": "ASSOCIATES IN MENTAL HEALTH SC",
      "phoneNumber": 3096374266,
      "latitude": 40.6965599,
      "longitude": -89.5945459,
      "address": "Main Street, Peoria, IL 61602, United States of America",
      "city": "PEORIA",
      "state": "Illinois",
      "state_code": "IL",
      "country": "United States"
    },
    {
      "id": 11844,
      "name": "HEARTLAND ALLIANCE HEALTH",
      "phoneNumber": 7737514129,
      "latitude": 41.9693555,
      "longitude": -87.6484768,
      "address": "West Lawrence Avenue, Chicago, IL 60640, United States of America",
      "city": "CHICAGO",
      "state": "Illinois",
      "state_code": "IL",
      "country": "United States"
    },
    {
      "id": 11845,
      "name": "",
      "phoneNumber": 3122668434,
      "latitude": 42.144948,
      "longitude": -87.768243,
      "address": "Park Place, Glencoe, IL 60022, United States of America",
      "city": "GLENCOE",
      "state": "Illinois",
      "state_code": "IL",
      "country": "United States"
    },
    {
      "id": 11846,
      "name": "",
      "phoneNumber": 7732516551,
      "latitude": 42.0582847,
      "longitude": -87.7527957,
      "address": "Lawler Avenue, Skokie, IL 60077, United States of America",
      "city": "SKOKIE",
      "state": "Illinois",
      "state_code": "IL",
      "country": "United States"
    },
    {
      "id": 11847,
      "name": "THE BOARD OF TRUSTEES OF THE UNIVERSITY OF ILLINOIS",
      "phoneNumber": 3129962200,
      "latitude": 41.830441,
      "longitude": -87.6703933,
      "address": "South Wood Street, Chicago, IL 60609, United States of America",
      "city": "CHICAGO",
      "state": "Illinois",
      "state_code": "IL",
      "country": "United States"
    },
    {
      "id": 11848,
      "name": "",
      "phoneNumber": 3129438322,
      "latitude": 41.8931966,
      "longitude": -87.6335385,
      "address": "West Ontario Street, Chicago, IL 60654, United States of America",
      "city": "CHICAGO",
      "state": "Illinois",
      "state_code": "IL",
      "country": "United States"
    },
    {
      "id": 11849,
      "name": "PRESENCE HEALTHCARE SERVICES",
      "phoneNumber": 6308592222,
      "latitude": 41.764302,
      "longitude": -88.32916,
      "address": "North Highland Avenue, Aurora, IL 60506, United States of America",
      "city": "AURORA",
      "state": "Illinois",
      "state_code": "IL",
      "country": "United States"
    },
    {
      "id": 11850,
      "name": "PRESENCE HEALTHCARE SERVICES",
      "phoneNumber": 2173372430,
      "latitude": 40.117429,
      "longitude": -88.209886,
      "address": "West Park Street, Urbana, IL 61801, United States of America",
      "city": "URBANA",
      "state": "Illinois",
      "state_code": "IL",
      "country": "United States"
    },
    {
      "id": 11851,
      "name": "EVIZZIT OF IOWA PSYCHIATRY PC",
      "phoneNumber": 8552703625,
      "latitude": 42.1829725,
      "longitude": -88.1160933,
      "address": "Schaffer Lane, North Barrington, IL 60010, United States of America",
      "city": "NORTH BARRINGTON",
      "state": "Illinois",
      "state_code": "IL",
      "country": "United States"
    },
    {
      "id": 11852,
      "name": "EVIZZIT OF IOWA PSYCHIATRY PC",
      "phoneNumber": 2177622115,
      "latitude": 40.0600059,
      "longitude": -88.5632835,
      "address": "Medical Center Drive, Monticello, IL 61856, United States of America",
      "city": "MONTICELLO",
      "state": "Illinois",
      "state_code": "IL",
      "country": "United States"
    },
    {
      "id": 11853,
      "name": "EVIZZIT OF IOWA PSYCHIATRY PC",
      "phoneNumber": 6188334511,
      "latitude": 37.4680279,
      "longitude": -89.2450223,
      "address": "North Main Street, Anna, IL 62906, United States of America",
      "city": "ANNA",
      "state": "Illinois",
      "state_code": "IL",
      "country": "United States"
    },
    {
      "id": 11854,
      "name": "SOUTHERN ILLINOIS MEDICAL SERVICES NFP",
      "phoneNumber": 6185495361,
      "latitude": 37.726109,
      "longitude": -89.230907,
      "address": "West Main Street, Carbondale, IL 62901, United States of America",
      "city": "CARBONDALE",
      "state": "Illinois",
      "state_code": "IL",
      "country": "United States"
    },
    {
      "id": 11855,
      "name": "RUSH UNIVERSITY MEDICAL CENTER",
      "phoneNumber": "",
      "latitude": 41.87769933,
      "longitude": -87.6671941,
      "address": "1645 West Jackson Boulevard, Chicago, IL 60612, United States of America",
      "city": "CHICAGO",
      "state": "Illinois",
      "state_code": "IL",
      "country": "United States"
    },
    {
      "id": 11856,
      "name": "RUSH UNIVERSITY MEDICAL CENTER",
      "phoneNumber": 3129425375,
      "latitude": 41.8744588,
      "longitude": -87.6355742,
      "address": "West Harrison Street, Chicago, IL 60605, United States of America",
      "city": "CHICAGO",
      "state": "Illinois",
      "state_code": "IL",
      "country": "United States"
    },
    {
      "id": 11857,
      "name": "RUSH UNIVERSITY MEDICAL CENTER",
      "phoneNumber": "",
      "latitude": 41.87339795,
      "longitude": -87.67013764,
      "address": "Rush Professional Building, 1725 West Harrison Street, Chicago, IL 60612, United States of America",
      "city": "CHICAGO",
      "state": "Illinois",
      "state_code": "IL",
      "country": "United States"
    },
    {
      "id": 11858,
      "name": "RUSH UNIVERSITY MEDICAL CENTER",
      "phoneNumber": 3125632875,
      "latitude": 41.8769039,
      "longitude": -87.6292416,
      "address": "West Van Buren Street, Chicago, IL 60604, United States of America",
      "city": "CHICAGO",
      "state": "Illinois",
      "state_code": "IL",
      "country": "United States"
    },
    {
      "id": 11859,
      "name": "ARROWLEAF",
      "phoneNumber": 6186583079,
      "latitude": 37.448652,
      "longitude": -88.305264,
      "address": "North Main Street, Elizabethtown, IL 62931, United States of America",
      "city": "ELIZABETHTOWN",
      "state": "Illinois",
      "state_code": "IL",
      "country": "United States"
    },
    {
      "id": 11860,
      "name": "",
      "phoneNumber": 8475188490,
      "latitude": 42.038471,
      "longitude": -87.847573,
      "address": "1775 Dempster Street, Park Ridge, IL 60068, United States of America",
      "city": "PARK RIDGE",
      "state": "Illinois",
      "state_code": "IL",
      "country": "United States"
    },
    {
      "id": 11861,
      "name": "CENTERSTONE OF ILLINOIS INC",
      "phoneNumber": 6184622331,
      "latitude": 38.90119,
      "longitude": -90.148074,
      "address": "Edwards Street, Alton, IL 62002, United States of America",
      "city": "ALTON",
      "state": "Illinois",
      "state_code": "IL",
      "country": "United States"
    },
    {
      "id": 11862,
      "name": "BHC STREAMWOOD HOSPITAL INC",
      "phoneNumber": 6308379000,
      "latitude": 42.0129277,
      "longitude": -88.1797804,
      "address": "East Irving Park Road, Streamwood, IL 60107, United States of America",
      "city": "STREAMWOOD",
      "state": "Illinois",
      "state_code": "IL",
      "country": "United States"
    },
    {
      "id": 11863,
      "name": "LOYOLA MEDICAL GROUP LLC",
      "phoneNumber": 7087837430,
      "latitude": 41.8451081,
      "longitude": -87.7919531,
      "address": "Euclid Avenue, Berwyn, IL 60402, United States of America",
      "city": "BERWYN",
      "state": "Illinois",
      "state_code": "IL",
      "country": "United States"
    },
    {
      "id": 11864,
      "name": "",
      "phoneNumber": 3122482632,
      "latitude": 41.8943769,
      "longitude": -87.8032495,
      "address": "North Marion Street, Oak Park, IL 60302, United States of America",
      "city": "OAK PARK",
      "state": "Illinois",
      "state_code": "IL",
      "country": "United States"
    },
    {
      "id": 11865,
      "name": "PIATT COUNTY MENTAL HEALTH CENTER",
      "phoneNumber": 2177625371,
      "latitude": 40.0255526,
      "longitude": -88.5736575,
      "address": "North Market Street, Monticello, IL 61856, United States of America",
      "city": "MONTICELLO",
      "state": "Illinois",
      "state_code": "IL",
      "country": "United States"
    },
    {
      "id": 11866,
      "name": "ADVOCATE HEALTH AND HOSPITALS CORPORATION",
      "phoneNumber": 7086844393,
      "latitude": 41.7197202,
      "longitude": -87.7656099,
      "address": "West 95th Street, Oak Lawn, IL 60453, United States of America",
      "city": "OAK LAWN",
      "state": "Illinois",
      "state_code": "IL",
      "country": "United States"
    },
    {
      "id": 11867,
      "name": "ADVOCATE HEALTH AND HOSPITALS CORPORATION",
      "phoneNumber": 7086844393,
      "latitude": 41.7197202,
      "longitude": -87.7656099,
      "address": "West 95th Street, Oak Lawn, IL 60453, United States of America",
      "city": "OAK LAWN",
      "state": "Illinois",
      "state_code": "IL",
      "country": "United States"
    },
    {
      "id": 11868,
      "name": "PRESENCE HEALTHCARE SERVICES",
      "phoneNumber": "",
      "latitude": 41.12100695,
      "longitude": -87.87180942,
      "address": "Ascension Saint Mary's Hospital, 500 West Court Street, Kankakee, IL 60901, United States of America",
      "city": "KANKAKEE",
      "state": "Illinois",
      "state_code": "IL",
      "country": "United States"
    },
    {
      "id": 11869,
      "name": "PRESENCE HEALTHCARE SERVICES",
      "phoneNumber": 8159372237,
      "latitude": 41.1205832,
      "longitude": -87.866862,
      "address": "West Court Street, Kankakee, IL 60901, United States of America",
      "city": "KANKAKEE",
      "state": "Illinois",
      "state_code": "IL",
      "country": "United States"
    },
    {
      "id": 11870,
      "name": "PRESENCE HEALTHCARE SERVICES",
      "phoneNumber": 2173372430,
      "latitude": 40.117429,
      "longitude": -88.209886,
      "address": "West Park Street, Urbana, IL 61801, United States of America",
      "city": "URBANA",
      "state": "Illinois",
      "state_code": "IL",
      "country": "United States"
    },
    {
      "id": 11871,
      "name": "RIVEREDGE HOSPITAL INC",
      "phoneNumber": 7087717000,
      "latitude": 41.8646353,
      "longitude": -87.8240811,
      "address": "Roosevelt Road, Forest Park, IL 60154, United States of America",
      "city": "FOREST PARK",
      "state": "Illinois",
      "state_code": "IL",
      "country": "United States"
    },
    {
      "id": 11872,
      "name": "2014 HEALTH LLC",
      "phoneNumber": 2122435565,
      "latitude": 42.044071,
      "longitude": -87.879253,
      "address": "Wilson Lane, Des Plaines, IL 60016, United States of America",
      "city": "DES PLAINES",
      "state": "Illinois",
      "state_code": "IL",
      "country": "United States"
    },
    {
      "id": 11873,
      "name": "",
      "phoneNumber": 8475599015,
      "latitude": 42.0330335,
      "longitude": -87.86499449,
      "address": "Renaissance Drive, Park Ridge, IL 60068, United States of America",
      "city": "PARK RIDGE",
      "state": "Illinois",
      "state_code": "IL",
      "country": "United States"
    },
    {
      "id": 11874,
      "name": "",
      "phoneNumber": 7088739059,
      "latitude": 41.6071495,
      "longitude": -87.8575041,
      "address": "South Ravinia Avenue, Orland Park, IL 60462, United States of America",
      "city": "ORLAND PARK",
      "state": "Illinois",
      "state_code": "IL",
      "country": "United States"
    },
    {
      "id": 11875,
      "name": "",
      "phoneNumber": 8476802200,
      "latitude": 42.28147,
      "longitude": -87.953028,
      "address": "South Milwaukee Avenue, Libertyville, IL 60048, United States of America",
      "city": "LIBERTYVILLE",
      "state": "Illinois",
      "state_code": "IL",
      "country": "United States"
    },
    {
      "id": 11876,
      "name": "THE PSYCH ASSOCS OF DUPAGE CHARTERED",
      "phoneNumber": 6309865403,
      "latitude": 41.812216,
      "longitude": -87.926168,
      "address": "North York Road, Hinsdale, IL 60521, United States of America",
      "city": "HINSDALE",
      "state": "Illinois",
      "state_code": "IL",
      "country": "United States"
    },
    {
      "id": 11877,
      "name": "THE BOARD OF TRUSTEES OF THE UNIVERSITY OF ILLINOIS",
      "phoneNumber": 3129962200,
      "latitude": 41.830441,
      "longitude": -87.6703933,
      "address": "South Wood Street, Chicago, IL 60609, United States of America",
      "city": "CHICAGO",
      "state": "Illinois",
      "state_code": "IL",
      "country": "United States"
    },
    {
      "id": 11878,
      "name": "",
      "phoneNumber": 3126420943,
      "latitude": 41.8933247,
      "longitude": -87.6241182,
      "address": "East Ontario Street, Chicago, IL 60611, United States of America",
      "city": "CHICAGO",
      "state": "Illinois",
      "state_code": "IL",
      "country": "United States"
    },
    {
      "id": 11879,
      "name": "MOUNT SINAI COMMUNITY FOUNDATION",
      "phoneNumber": 7735226656,
      "latitude": 41.8271872,
      "longitude": -87.6947406,
      "address": "South California Avenue, Chicago, IL 60629, United States of America",
      "city": "CHICAGO",
      "state": "Illinois",
      "state_code": "IL",
      "country": "United States"
    },
    {
      "id": 11880,
      "name": "MOUNT SINAI COMMUNITY FOUNDATION",
      "phoneNumber": 7735422000,
      "latitude": 41.8755616,
      "longitude": -87.6244212,
      "address": "Chicago, IL, United States of America",
      "city": "CHICAGO",
      "state": "Illinois",
      "state_code": "IL",
      "country": "United States"
    },
    {
      "id": 11881,
      "name": "CENTRAL DUPAGE PHYSICIAN GROUP",
      "phoneNumber": 6302600600,
      "latitude": 41.856824,
      "longitude": -88.160968,
      "address": "South Winfield Road, Winfield, IL 60190, United States of America",
      "city": "WINFIELD",
      "state": "Illinois",
      "state_code": "IL",
      "country": "United States"
    },
    {
      "id": 11882,
      "name": "THE BOARD OF TRUSTEES OF THE UNIVERSITY OF ILLINOIS",
      "phoneNumber": 3129962200,
      "latitude": 41.830441,
      "longitude": -87.6703933,
      "address": "South Wood Street, Chicago, IL 60609, United States of America",
      "city": "CHICAGO",
      "state": "Illinois",
      "state_code": "IL",
      "country": "United States"
    },
    {
      "id": 11883,
      "name": "V COVINGTON, LLC",
      "phoneNumber": 8472493900,
      "latitude": 42.3595628,
      "longitude": -87.8286781,
      "address": "Washington Street, Waukegan, IL 60085, United States of America",
      "city": "WAUKEGAN",
      "state": "Illinois",
      "state_code": "IL",
      "country": "United States"
    },
    {
      "id": 11884,
      "name": "BHC STREAMWOOD HOSPITAL INC",
      "phoneNumber": 6308379000,
      "latitude": 42.0129277,
      "longitude": -88.1797804,
      "address": "East Irving Park Road, Streamwood, IL 60107, United States of America",
      "city": "STREAMWOOD",
      "state": "Illinois",
      "state_code": "IL",
      "country": "United States"
    },
    {
      "id": 11885,
      "name": "HINSDALE BEHAVIORAL HEALTH CLINIC",
      "phoneNumber": 6309201795,
      "latitude": 41.8178946,
      "longitude": -87.9179213,
      "address": "East Ogden Avenue, Hinsdale, IL 60558, United States of America",
      "city": "HINSDALE",
      "state": "Illinois",
      "state_code": "IL",
      "country": "United States"
    },
    {
      "id": 11886,
      "name": "PRESENCE BEHAVIORAL HEALTH",
      "phoneNumber": 7086810073,
      "latitude": 41.8902434,
      "longitude": -87.8504854,
      "address": "Main Street, Melrose Park, IL 60160, United States of America",
      "city": "MELROSE PARK",
      "state": "Illinois",
      "state_code": "IL",
      "country": "United States"
    },
    {
      "id": 11887,
      "name": "GEIGER PSYCHIATRIC CARE LLC",
      "phoneNumber": 8159861113,
      "latitude": 42.3255018,
      "longitude": -89.0285183,
      "address": "Windsor Road, Loves Park, IL 61111, United States of America",
      "city": "LOVES PARK",
      "state": "Illinois",
      "state_code": "IL",
      "country": "United States"
    },
    {
      "id": 11888,
      "name": "ROSECRANCE INC",
      "phoneNumber": 8153328003,
      "latitude": 42.2767074,
      "longitude": -89.0901589,
      "address": "North Main Street, Rockford, IL 61103, United States of America",
      "city": "ROCKFORD",
      "state": "Illinois",
      "state_code": "IL",
      "country": "United States"
    },
    {
      "id": 11889,
      "name": "GRAND PRAIRIE SERVICES",
      "phoneNumber": 7084441012,
      "latitude": 41.5061518,
      "longitude": -87.6409731,
      "address": "Lincoln Highway, Chicago Heights, IL 60411, United States of America",
      "city": "CHICAGO HEIGHTS",
      "state": "Illinois",
      "state_code": "IL",
      "country": "United States"
    },
    {
      "id": 11890,
      "name": "GRAND PRAIRIE SERVICES",
      "phoneNumber": 7084441012,
      "latitude": 41.5060126,
      "longitude": -87.6716206,
      "address": "Lincoln Highway, Chicago Heights, IL 60461, United States of America",
      "city": "CHICAGO HEIGHTS",
      "state": "Illinois",
      "state_code": "IL",
      "country": "United States"
    },
    {
      "id": 11891,
      "name": "GRAND PRAIRIE SERVICES",
      "phoneNumber": 7084441012,
      "latitude": 41.5458644,
      "longitude": -87.6939173,
      "address": "Kedzie Avenue, Flossmoor, IL 60422, United States of America",
      "city": "FLOSSMOOR",
      "state": "Illinois",
      "state_code": "IL",
      "country": "United States"
    },
    {
      "id": 11892,
      "name": "FARID KARIMI MD PC",
      "phoneNumber": 7084795555,
      "latitude": 41.630663,
      "longitude": -87.8536288,
      "address": "Orland Park, IL 60462, United States of America",
      "city": "ORLAND PARK",
      "state": "Illinois",
      "state_code": "IL",
      "country": "United States"
    },
    {
      "id": 11893,
      "name": "CARLE HEALTH CARE INCORPORATED",
      "phoneNumber": 2173831850,
      "latitude": 40.098619,
      "longitude": -88.307821,
      "address": "West Kirby Avenue, Champaign, IL 61822, United States of America",
      "city": "CHAMPAIGN",
      "state": "Illinois",
      "state_code": "IL",
      "country": "United States"
    },
    {
      "id": 11894,
      "name": "ALLIANCE CLINICAL ASSOCIATES SC",
      "phoneNumber": 6306532300,
      "latitude": 41.8358276,
      "longitude": -88.1030469,
      "address": "Blanchard Circle, Wheaton, IL 60189, United States of America",
      "city": "WHEATON",
      "state": "Illinois",
      "state_code": "IL",
      "country": "United States"
    },
    {
      "id": 11895,
      "name": "THE BOARD OF TRUSTEES OF THE UNIVERSITY OF ILLINOIS",
      "phoneNumber": 3129962200,
      "latitude": 41.830441,
      "longitude": -87.6703933,
      "address": "South Wood Street, Chicago, IL 60609, United States of America",
      "city": "CHICAGO",
      "state": "Illinois",
      "state_code": "IL",
      "country": "United States"
    },
    {
      "id": 11896,
      "name": "SUMMIT CLINICAL SERVICES PC",
      "phoneNumber": 6302600606,
      "latitude": 41.8583463,
      "longitude": -88.1024684,
      "address": "South Naperville Road, Wheaton, IL 60187, United States of America",
      "city": "WHEATON",
      "state": "Illinois",
      "state_code": "IL",
      "country": "United States"
    },
    {
      "id": 11897,
      "name": "MOUNT SINAI COMMUNITY FOUNDATION",
      "phoneNumber": 7735226656,
      "latitude": 41.8271872,
      "longitude": -87.6947406,
      "address": "South California Avenue, Chicago, IL 60629, United States of America",
      "city": "CHICAGO",
      "state": "Illinois",
      "state_code": "IL",
      "country": "United States"
    },
    {
      "id": 11898,
      "name": "MOUNT SINAI COMMUNITY FOUNDATION",
      "phoneNumber": 7735422000,
      "latitude": 41.8755616,
      "longitude": -87.6244212,
      "address": "Chicago, IL, United States of America",
      "city": "CHICAGO",
      "state": "Illinois",
      "state_code": "IL",
      "country": "United States"
    },
    {
      "id": 11899,
      "name": "THE UNIVERSITY OF CHICAGO MEDICAL CENTER",
      "phoneNumber": 7737021000,
      "latitude": 41.7931064,
      "longitude": -87.6049723,
      "address": "South Maryland Avenue, Chicago, IL 60637, United States of America",
      "city": "CHICAGO",
      "state": "Illinois",
      "state_code": "IL",
      "country": "United States"
    },
    {
      "id": 11900,
      "name": "UNIVERSITY OF CHICAGO",
      "phoneNumber": 7737021000,
      "latitude": 41.7931064,
      "longitude": -87.6049723,
      "address": "South Maryland Avenue, Chicago, IL 60637, United States of America",
      "city": "CHICAGO",
      "state": "Illinois",
      "state_code": "IL",
      "country": "United States"
    },
    {
      "id": 11901,
      "name": "EDWARD HEALTH VENTURES",
      "phoneNumber": 6306466540,
      "latitude": 41.543267,
      "longitude": -87.837051,
      "address": "West 191st Street, Mokena, IL 60448, United States of America",
      "city": "MOKEMA",
      "state": "Illinois",
      "state_code": "IL",
      "country": "United States"
    },
    {
      "id": 11902,
      "name": "LOYOLA MEDICAL GROUP LLC",
      "phoneNumber": 7087830700,
      "latitude": 41.8633422,
      "longitude": -87.7937141,
      "address": "Oak Park Avenue, Berwyn, IL 60402, United States of America",
      "city": "BERWYN",
      "state": "Illinois",
      "state_code": "IL",
      "country": "United States"
    },
    {
      "id": 11903,
      "name": "2014 HEALTH LLC",
      "phoneNumber": 2122435565,
      "latitude": 42.044071,
      "longitude": -87.879253,
      "address": "Wilson Lane, Des Plaines, IL 60016, United States of America",
      "city": "DES PLAINES",
      "state": "Illinois",
      "state_code": "IL",
      "country": "United States"
    },
    {
      "id": 11904,
      "name": "OSF MULTI-SPECIALTY GROUP",
      "phoneNumber": 7084992070,
      "latitude": 41.7209602,
      "longitude": -87.6869959,
      "address": "West 95th Street, Evergreen Park, IL 60805, United States of America",
      "city": "EVERGREEN",
      "state": "Illinois",
      "state_code": "IL",
      "country": "United States"
    },
    {
      "id": 11905,
      "name": "OSF MULTI-SPECIALTY GROUP",
      "phoneNumber": 3096835050,
      "latitude": 40.78578,
      "longitude": -89.6696183,
      "address": "North State Route 91, Peoria, IL 61615, United States of America",
      "city": "PEORIA",
      "state": "Illinois",
      "state_code": "IL",
      "country": "United States"
    },
    {
      "id": 11906,
      "name": "PHYSICIAN SERVICES CORPORATION OF SOUTHERN ILLINOIS INC",
      "phoneNumber": 6184365665,
      "latitude": 38.5295278,
      "longitude": -89.116019,
      "address": "North Pleasant Avenue, Centralia, IL 62801, United States of America",
      "city": "CENTRALIA",
      "state": "Illinois",
      "state_code": "IL",
      "country": "United States"
    },
    {
      "id": 11907,
      "name": "VNA HEALTH CARE",
      "phoneNumber": 6309782532,
      "latitude": 41.764302,
      "longitude": -88.32916,
      "address": "North Highland Avenue, Aurora, IL 60506, United States of America",
      "city": "AURORA",
      "state": "Illinois",
      "state_code": "IL",
      "country": "United States"
    },
    {
      "id": 11908,
      "name": "ASSOCIATES IN PSYCHIATRY AND COUNSELING, PC",
      "phoneNumber": 8476972400,
      "latitude": 42.0364092,
      "longitude": -88.3052889,
      "address": "Larkin Avenue, Elgin, IL 60123, United States of America",
      "city": "ELGIN",
      "state": "Illinois",
      "state_code": "IL",
      "country": "United States"
    },
    {
      "id": 11909,
      "name": "NORTHWESTERN MEDICAL FACULTY FOUNDATION",
      "phoneNumber": "",
      "latitude": 42.0481696,
      "longitude": -87.68239634,
      "address": "1630 Sherman Avenue, Evanston, IL 60201, United States of America",
      "city": "EVANSTON",
      "state": "Illinois",
      "state_code": "IL",
      "country": "United States"
    },
    {
      "id": 11910,
      "name": "NORTHWESTERN MEDICAL FACULTY FOUNDATION",
      "phoneNumber": "",
      "latitude": 41.894572,
      "longitude": -87.620899,
      "address": "251 East Huron Street, Chicago, IL 60611, United States of America",
      "city": "CHICAGO",
      "state": "Illinois",
      "state_code": "IL",
      "country": "United States"
    },
    {
      "id": 11911,
      "name": "NORTHWESTERN MEDICAL FACULTY FOUNDATION",
      "phoneNumber": "",
      "latitude": 41.89498135,
      "longitude": -87.62153624,
      "address": "Northwestern Memorial Hospital, 251 East Huron Street, Chicago, IL 60611, United States of America",
      "city": "CHICAGO",
      "state": "Illinois",
      "state_code": "IL",
      "country": "United States"
    },
    {
      "id": 11912,
      "name": "NORTHWESTERN MEDICAL FACULTY FOUNDATION",
      "phoneNumber": "",
      "latitude": 41.8942888,
      "longitude": -87.6229706,
      "address": "Corner Bakery, 676 North Saint Clair Street, Chicago, IL 60611, United States of America",
      "city": "CHICAGO",
      "state": "Illinois",
      "state_code": "IL",
      "country": "United States"
    },
    {
      "id": 11913,
      "name": "NORTHWESTERN MEDICAL FACULTY FOUNDATION",
      "phoneNumber": 3126950596,
      "latitude": 41.8910541,
      "longitude": -87.6226513,
      "address": "North Saint Clair Street, Chicago, IL 60611, United States of America",
      "city": "CHICAGO",
      "state": "Illinois",
      "state_code": "IL",
      "country": "United States"
    },
    {
      "id": 11914,
      "name": "NORTHWESTERN MEDICAL FACULTY FOUNDATION",
      "phoneNumber": "",
      "latitude": 41.894157,
      "longitude": -87.622734,
      "address": "675 North Saint Clair Street, Chicago, IL 60611, United States of America",
      "city": "CHICAGO",
      "state": "Illinois",
      "state_code": "IL",
      "country": "United States"
    },
    {
      "id": 11915,
      "name": "NORTHWESTERN MEDICAL FACULTY FOUNDATION",
      "phoneNumber": 3126953800,
      "latitude": 41.8910541,
      "longitude": -87.6226513,
      "address": "North Saint Clair Street, Chicago, IL 60611, United States of America",
      "city": "CHICAGO",
      "state": "Illinois",
      "state_code": "IL",
      "country": "United States"
    },
    {
      "id": 11916,
      "name": "WISE HEALTH PROFESSIONAL CORP",
      "phoneNumber": 7732928200,
      "latitude": 41.9284486,
      "longitude": -87.6999786,
      "address": "North Francisco Avenue, Chicago, IL 60618, United States of America",
      "city": "CHICAGO",
      "state": "Illinois",
      "state_code": "IL",
      "country": "United States"
    },
    {
      "id": 11917,
      "name": "WISE HEALTH PROFESSIONAL CORP",
      "phoneNumber": 7739899868,
      "latitude": 41.9284486,
      "longitude": -87.6999786,
      "address": "North Francisco Avenue, Chicago, IL 60618, United States of America",
      "city": "CHICAGO",
      "state": "Illinois",
      "state_code": "IL",
      "country": "United States"
    },
    {
      "id": 11918,
      "name": "WISE HEALTH PROFESSIONAL CORP",
      "phoneNumber": 7739899868,
      "latitude": 41.8917706,
      "longitude": -87.6842796,
      "address": "North Oakley Boulevard, Chicago, IL 60622, United States of America",
      "city": "CHICAGO",
      "state": "Illinois",
      "state_code": "IL",
      "country": "United States"
    },
    {
      "id": 11919,
      "name": "WISE HEALTH PROFESSIONAL CORP",
      "phoneNumber": 7732719040,
      "latitude": 41.9309039,
      "longitude": -87.6707746,
      "address": "North Paulina Street, Chicago, IL 60613, United States of America",
      "city": "CHICAGO",
      "state": "Illinois",
      "state_code": "IL",
      "country": "United States"
    },
    {
      "id": 11920,
      "name": "MEIER CLINICS OF ILLINOIS, P.C.",
      "phoneNumber": 6306531717,
      "latitude": 41.867495,
      "longitude": -88.124986,
      "address": "Manchester Road, Wheaton, IL 60190, United States of America",
      "city": "WHEATON",
      "state": "Illinois",
      "state_code": "IL",
      "country": "United States"
    },
    {
      "id": 11921,
      "name": "NORTHWESTERN MEDICAL FACULTY FOUNDATION",
      "phoneNumber": "",
      "latitude": 41.8942888,
      "longitude": -87.6229706,
      "address": "Corner Bakery, 676 North Saint Clair Street, Chicago, IL 60611, United States of America",
      "city": "CHICAGO",
      "state": "Illinois",
      "state_code": "IL",
      "country": "United States"
    },
    {
      "id": 11922,
      "name": "NORTHWESTERN MEDICAL FACULTY FOUNDATION",
      "phoneNumber": 3126950596,
      "latitude": 41.8910541,
      "longitude": -87.6226513,
      "address": "North Saint Clair Street, Chicago, IL 60611, United States of America",
      "city": "CHICAGO",
      "state": "Illinois",
      "state_code": "IL",
      "country": "United States"
    },
    {
      "id": 11923,
      "name": "NORTHWESTERN MEDICAL FACULTY FOUNDATION",
      "phoneNumber": "",
      "latitude": 41.894157,
      "longitude": -87.622734,
      "address": "675 North Saint Clair Street, Chicago, IL 60611, United States of America",
      "city": "CHICAGO",
      "state": "Illinois",
      "state_code": "IL",
      "country": "United States"
    },
    {
      "id": 11924,
      "name": "NORTHWESTERN MEDICAL FACULTY FOUNDATION",
      "phoneNumber": 3126953800,
      "latitude": 41.8910541,
      "longitude": -87.6226513,
      "address": "North Saint Clair Street, Chicago, IL 60611, United States of America",
      "city": "CHICAGO",
      "state": "Illinois",
      "state_code": "IL",
      "country": "United States"
    },
    {
      "id": 11925,
      "name": "",
      "phoneNumber": 3125545431,
      "latitude": 41.5161775,
      "longitude": -88.0741999,
      "address": "Richards Street, Joliet, IL 60432, United States of America",
      "city": "JOLIET",
      "state": "Illinois",
      "state_code": "IL",
      "country": "United States"
    },
    {
      "id": 11926,
      "name": "SAINT ANTHONY HEALTH AFFILIATES",
      "phoneNumber": 7734844425,
      "latitude": 41.8566005,
      "longitude": -87.6290375,
      "address": "West 19th Street, Chicago, IL 60616, United States of America",
      "city": "CHICAGO",
      "state": "Illinois",
      "state_code": "IL",
      "country": "United States"
    },
    {
      "id": 11927,
      "name": "SIU PHYSICIANS AND SURGEONS INC",
      "phoneNumber": 2175458000,
      "latitude": 39.8040502,
      "longitude": -89.6540228,
      "address": "East Madison Street, Springfield, IL 62781, United States of America",
      "city": "SPRINGFIELD",
      "state": "Illinois",
      "state_code": "IL",
      "country": "United States"
    },
    {
      "id": 11928,
      "name": "BOARD OF TRUSTEES OF SOUTHERN ILLINOIS UNIVERSITY",
      "phoneNumber": 2175458000,
      "latitude": 39.8055936,
      "longitude": -89.6575384,
      "address": "North Rutledge Street, Springfield, IL 62702, United States of America",
      "city": "SPRINGFIELD",
      "state": "Illinois",
      "state_code": "IL",
      "country": "United States"
    },
    {
      "id": 11929,
      "name": "BOARD OF TRUSTEES OF SOUTHERN ILLINOIS UNIVERSITY",
      "phoneNumber": 2175458000,
      "latitude": 39.8115878,
      "longitude": -89.6505472,
      "address": "North 4th Street, Springfield, IL 62781, United States of America",
      "city": "SPRINGFIELD",
      "state": "Illinois",
      "state_code": "IL",
      "country": "United States"
    },
    {
      "id": 11930,
      "name": "BOARD OF TRUSTEES OF SOUTHERN ILLINOIS UNIVERSITY",
      "phoneNumber": 2175887717,
      "latitude": 39.8125927,
      "longitude": -89.6447373,
      "address": "North 8th Street, Springfield, IL 62702, United States of America",
      "city": "SPRINGFIELD",
      "state": "Illinois",
      "state_code": "IL",
      "country": "United States"
    },
    {
      "id": 11931,
      "name": "NORTHWESTERN MEDICAL FACULTY FOUNDATION",
      "phoneNumber": 3126955060,
      "latitude": 41.8910541,
      "longitude": -87.6226513,
      "address": "North Saint Clair Street, Chicago, IL 60611, United States of America",
      "city": "CHICAGO",
      "state": "Illinois",
      "state_code": "IL",
      "country": "United States"
    },
    {
      "id": 11932,
      "name": "MCCD PSYCHIATRY SERVICES PLLC",
      "phoneNumber": 9176345311,
      "latitude": 42.180363,
      "longitude": -87.9294277,
      "address": "Parkway Drive, Lincolnshire, IL 60069, United States of America",
      "city": "LINCOLNSHIRE",
      "state": "Illinois",
      "state_code": "IL",
      "country": "United States"
    },
    {
      "id": 11933,
      "name": "",
      "phoneNumber": 6302411495,
      "latitude": 42.2789117,
      "longitude": -87.8342362,
      "address": "Lake Bluff, IL 60044, United States of America",
      "city": "LAKE BLUFF",
      "state": "Illinois",
      "state_code": "IL",
      "country": "United States"
    },
    {
      "id": 11934,
      "name": "V COVINGTON, LLC",
      "phoneNumber": 8472493900,
      "latitude": 42.3595628,
      "longitude": -87.8286781,
      "address": "Washington Street, Waukegan, IL 60085, United States of America",
      "city": "WAUKEGAN",
      "state": "Illinois",
      "state_code": "IL",
      "country": "United States"
    },
    {
      "id": 11935,
      "name": "",
      "phoneNumber": 8475876112,
      "latitude": 42.1073541,
      "longitude": -87.7253035,
      "address": "Spruce Street, Winnetka, IL 60093, United States of America",
      "city": "WINNETKA",
      "state": "Illinois",
      "state_code": "IL",
      "country": "United States"
    },
    {
      "id": 11936,
      "name": "THEODORE HANDRUP MD LTD",
      "phoneNumber": 7734721483,
      "latitude": 41.9371665,
      "longitude": -87.6394427,
      "address": "North Sheridan Road, Chicago, IL 60657, United States of America",
      "city": "CHICAGO",
      "state": "Illinois",
      "state_code": "IL",
      "country": "United States"
    },
    {
      "id": 11937,
      "name": "",
      "phoneNumber": 8474361300,
      "latitude": 42.1891962,
      "longitude": -87.7969369,
      "address": "Elm Place, Highland Park, IL 60035, United States of America",
      "city": "HIGHLAND PARK",
      "state": "Illinois",
      "state_code": "IL",
      "country": "United States"
    },
    {
      "id": 11938,
      "name": "",
      "phoneNumber": 6308865770,
      "latitude": 41.7978185,
      "longitude": -88.1341324,
      "address": "Iroquois Avenue, Naperville, IL 60566, United States of America",
      "city": "NAPERVILLE",
      "state": "Illinois",
      "state_code": "IL",
      "country": "United States"
    },
    {
      "id": 11939,
      "name": "",
      "phoneNumber": 3122699180,
      "latitude": 41.8924487,
      "longitude": -87.6242945,
      "address": "North Michigan Avenue, Chicago, IL 60611, United States of America",
      "city": "CHICAGO",
      "state": "Illinois",
      "state_code": "IL",
      "country": "United States"
    },
    {
      "id": 11940,
      "name": "",
      "phoneNumber": 6302319400,
      "latitude": 41.9017111,
      "longitude": -88.1352654,
      "address": "Saint Charles Road, Carol Stream, IL 60188, United States of America",
      "city": "CAROL STREAM",
      "state": "Illinois",
      "state_code": "IL",
      "country": "United States"
    },
    {
      "id": 11941,
      "name": "THE BOARD OF TRUSTEES OF THE UNIVERSITY OF ILLINOIS",
      "phoneNumber": 3129962200,
      "latitude": 41.830441,
      "longitude": -87.6703933,
      "address": "South Wood Street, Chicago, IL 60609, United States of America",
      "city": "CHICAGO",
      "state": "Illinois",
      "state_code": "IL",
      "country": "United States"
    },
    {
      "id": 11942,
      "name": "DUPAGE PSYCHIATRIC CARE PLLC",
      "phoneNumber": 6303667330,
      "latitude": 41.8178946,
      "longitude": -87.9179213,
      "address": "East Ogden Avenue, Hinsdale, IL 60558, United States of America",
      "city": "HINSDALE",
      "state": "Illinois",
      "state_code": "IL",
      "country": "United States"
    },
    {
      "id": 11943,
      "name": "SILVER OAKS BEHAVIORAL, LLC",
      "phoneNumber": 8445805000,
      "latitude": 41.5454078,
      "longitude": -87.9870789,
      "address": "Pawlak Parkway, New Lenox, IL, United States of America",
      "city": "NEW LENOX",
      "state": "Illinois",
      "state_code": "IL",
      "country": "United States"
    },
    {
      "id": 11944,
      "name": "NORTH SHORE UNIVERSITY HEALTHSYSTEM FACULTY PRACTICE ASSOCIATES",
      "phoneNumber": "",
      "latitude": 42.06460645,
      "longitude": -87.68446377,
      "address": "Evanston Hospital, 2650 Ridge Avenue, Evanston, IL 60201, United States of America",
      "city": "EVANSTON",
      "state": "Illinois",
      "state_code": "IL",
      "country": "United States"
    },
    {
      "id": 11945,
      "name": "SIU PHYSICIANS AND SURGEONS INC",
      "phoneNumber": 2175458000,
      "latitude": 39.8080467,
      "longitude": -89.6818438,
      "address": "West Jefferson Street, Springfield, IL 62702, United States of America",
      "city": "SPRINGFIELD",
      "state": "Illinois",
      "state_code": "IL",
      "country": "United States"
    },
    {
      "id": 11946,
      "name": "LOYOLA UNIVERSITY MEDICAL CENTER",
      "phoneNumber": 7082168372,
      "latitude": 41.8853908,
      "longitude": -87.8342491,
      "address": "South 1st Avenue, Maywood, IL 60153, United States of America",
      "city": "MAYWOOD",
      "state": "Illinois",
      "state_code": "IL",
      "country": "United States"
    },
    {
      "id": 11947,
      "name": "EDWARD HEALTH VENTURES",
      "phoneNumber": 6309649400,
      "latitude": 41.766405,
      "longitude": -88.068967,
      "address": "Seven Bridges Drive, Woodridge, IL 60517, United States of America",
      "city": "WOODRIDGE",
      "state": "Illinois",
      "state_code": "IL",
      "country": "United States"
    },
    {
      "id": 11948,
      "name": "COOK COUNTY",
      "phoneNumber": 3126337292,
      "latitude": 41.8744588,
      "longitude": -87.6355742,
      "address": "West Harrison Street, Chicago, IL 60605, United States of America",
      "city": "CHICAGO",
      "state": "Illinois",
      "state_code": "IL",
      "country": "United States"
    },
    {
      "id": 11949,
      "name": "COOK COUNTY",
      "phoneNumber": 7737535500,
      "latitude": 41.7749804,
      "longitude": -87.5960742,
      "address": "South Woodlawn Avenue, Chicago, IL 60637, United States of America",
      "city": "CHICAGO",
      "state": "Illinois",
      "state_code": "IL",
      "country": "United States"
    },
    {
      "id": 11950,
      "name": "THE ROBERT YOUNG CENTER FOR COMMUNITY MENTAL HEALTH",
      "phoneNumber": 3097793048,
      "latitude": 41.5117396,
      "longitude": -90.5760335,
      "address": "17th Street, Rock Island, IL 61201, United States of America",
      "city": "ROCK ISLAND",
      "state": "Illinois",
      "state_code": "IL",
      "country": "United States"
    },
    {
      "id": 11951,
      "name": "RUSH UNIVERSITY MEDICAL CENTER",
      "phoneNumber": 7086602240,
      "latitude": 41.8754608,
      "longitude": -87.8037557,
      "address": "South Maple Avenue, Oak Park, IL 60304, United States of America",
      "city": "OAK PARK",
      "state": "Illinois",
      "state_code": "IL",
      "country": "United States"
    },
    {
      "id": 11952,
      "name": "RUSH UNIVERSITY MEDICAL CENTER",
      "phoneNumber": 7086605900,
      "latitude": 41.8754608,
      "longitude": -87.8037557,
      "address": "South Maple Avenue, Oak Park, IL 60304, United States of America",
      "city": "OAK PARK",
      "state": "Illinois",
      "state_code": "IL",
      "country": "United States"
    },
    {
      "id": 11953,
      "name": "RUSH UNIVERSITY MEDICAL CENTER",
      "phoneNumber": "",
      "latitude": 41.87352605,
      "longitude": -87.66910151,
      "address": "Rush University Medical Center, 1653 West Congress Parkway, Chicago, IL 60612, United States of America",
      "city": "CHICAGO",
      "state": "Illinois",
      "state_code": "IL",
      "country": "United States"
    },
    {
      "id": 11954,
      "name": "RUSH UNIVERSITY MEDICAL CENTER",
      "phoneNumber": 3125632875,
      "latitude": 41.8769039,
      "longitude": -87.6292416,
      "address": "West Van Buren Street, Chicago, IL 60604, United States of America",
      "city": "CHICAGO",
      "state": "Illinois",
      "state_code": "IL",
      "country": "United States"
    },
    {
      "id": 11955,
      "name": "CLARITY CLINIC LLC",
      "phoneNumber": 7734964433,
      "latitude": 41.933331,
      "longitude": -87.644427,
      "address": "2813 North Broadway Street, Chicago, IL 60657, United States of America",
      "city": "CHICAGO",
      "state": "Illinois",
      "state_code": "IL",
      "country": "United States"
    },
    {
      "id": 11956,
      "name": "NORTHWESTERN MEDICAL FACULTY FOUNDATION",
      "phoneNumber": "",
      "latitude": 41.894572,
      "longitude": -87.620899,
      "address": "251 East Huron Street, Chicago, IL 60611, United States of America",
      "city": "CHICAGO",
      "state": "Illinois",
      "state_code": "IL",
      "country": "United States"
    },
    {
      "id": 11957,
      "name": "NORTHWESTERN MEDICAL FACULTY FOUNDATION",
      "phoneNumber": "",
      "latitude": 41.89498135,
      "longitude": -87.62153624,
      "address": "Northwestern Memorial Hospital, 251 East Huron Street, Chicago, IL 60611, United States of America",
      "city": "CHICAGO",
      "state": "Illinois",
      "state_code": "IL",
      "country": "United States"
    },
    {
      "id": 11958,
      "name": "NORTHWESTERN MEDICAL FACULTY FOUNDATION",
      "phoneNumber": "",
      "latitude": 41.8942888,
      "longitude": -87.6229706,
      "address": "Corner Bakery, 676 North Saint Clair Street, Chicago, IL 60611, United States of America",
      "city": "CHICAGO",
      "state": "Illinois",
      "state_code": "IL",
      "country": "United States"
    },
    {
      "id": 11959,
      "name": "NORTHWESTERN MEDICAL FACULTY FOUNDATION",
      "phoneNumber": 3126950596,
      "latitude": 41.8910541,
      "longitude": -87.6226513,
      "address": "North Saint Clair Street, Chicago, IL 60611, United States of America",
      "city": "CHICAGO",
      "state": "Illinois",
      "state_code": "IL",
      "country": "United States"
    },
    {
      "id": 11960,
      "name": "NORTHWESTERN MEDICAL FACULTY FOUNDATION",
      "phoneNumber": "",
      "latitude": 41.894157,
      "longitude": -87.622734,
      "address": "675 North Saint Clair Street, Chicago, IL 60611, United States of America",
      "city": "CHICAGO",
      "state": "Illinois",
      "state_code": "IL",
      "country": "United States"
    },
    {
      "id": 11961,
      "name": "NORTHWESTERN MEDICAL FACULTY FOUNDATION",
      "phoneNumber": 3126953800,
      "latitude": 41.8910541,
      "longitude": -87.6226513,
      "address": "North Saint Clair Street, Chicago, IL 60611, United States of America",
      "city": "CHICAGO",
      "state": "Illinois",
      "state_code": "IL",
      "country": "United States"
    },
    {
      "id": 11962,
      "name": "NORTHWESTERN MEDICAL FACULTY FOUNDATION",
      "phoneNumber": "",
      "latitude": 41.9396431,
      "longitude": -87.6623275,
      "address": "Northwestern Medicine Primary and Specialty Care Lakeview, 1333 West Belmont Avenue, Chicago, IL 60657, United States of America",
      "city": "CHICAGO",
      "state": "Illinois",
      "state_code": "IL",
      "country": "United States"
    },
    {
      "id": 11963,
      "name": "ILLINOIS POST-ACUTE MEDICAL SERVICES 1 PC",
      "phoneNumber": 8474191111,
      "latitude": 42.1609024,
      "longitude": -87.9983073,
      "address": "Checker Road, Long Grove, IL 60089, United States of America",
      "city": "LONG GROVE",
      "state": "Illinois",
      "state_code": "IL",
      "country": "United States"
    },
    {
      "id": 11964,
      "name": "ILLINOIS POST-ACUTE MEDICAL SERVICES 1 PC",
      "phoneNumber": 3128235886,
      "latitude": 41.8940152,
      "longitude": -87.6327398,
      "address": "West Erie Street, Chicago, IL 60610, United States of America",
      "city": "CHICAGO",
      "state": "Illinois",
      "state_code": "IL",
      "country": "United States"
    },
    {
      "id": 11965,
      "name": "ILLINOIS POST-ACUTE MEDICAL SERVICES 1 PC",
      "phoneNumber": 8152447715,
      "latitude": 42.1131694,
      "longitude": -89.9874594,
      "address": "North Lowden Road, Mount Carroll, IL 61053, United States of America",
      "city": "MOUNT CARROLL",
      "state": "Illinois",
      "state_code": "IL",
      "country": "United States"
    },
    {
      "id": 11966,
      "name": "ILLINOIS POST-ACUTE MEDICAL SERVICES 1 PC",
      "phoneNumber": 8156269020,
      "latitude": 41.808632,
      "longitude": -89.7076286,
      "address": "West 23rd Street, Sterling, IL 61081, United States of America",
      "city": "STERLING",
      "state": "Illinois",
      "state_code": "IL",
      "country": "United States"
    },
    {
      "id": 11967,
      "name": "ILLINOIS POST-ACUTE MEDICAL SERVICES 1 PC",
      "phoneNumber": 3093445400,
      "latitude": 40.9750112,
      "longitude": -90.3873973,
      "address": "West Carl Sandburg Drive, Galesburg, IL 61401, United States of America",
      "city": "GALESBURG",
      "state": "Illinois",
      "state_code": "IL",
      "country": "United States"
    },
    {
      "id": 11968,
      "name": "COOK COUNTY",
      "phoneNumber": 3126337292,
      "latitude": 41.8744588,
      "longitude": -87.6355742,
      "address": "West Harrison Street, Chicago, IL 60605, United States of America",
      "city": "CHICAGO",
      "state": "Illinois",
      "state_code": "IL",
      "country": "United States"
    },
    {
      "id": 11969,
      "name": "COOK COUNTY",
      "phoneNumber": 7737535500,
      "latitude": 41.7749804,
      "longitude": -87.5960742,
      "address": "South Woodlawn Avenue, Chicago, IL 60637, United States of America",
      "city": "CHICAGO",
      "state": "Illinois",
      "state_code": "IL",
      "country": "United States"
    },
    {
      "id": 11970,
      "name": "COOK COUNTY",
      "phoneNumber": 7738269600,
      "latitude": 41.896664,
      "longitude": -87.629217,
      "address": "West Chicago Avenue, Chicago, IL 60654, United States of America",
      "city": "CHICAGO",
      "state": "Illinois",
      "state_code": "IL",
      "country": "United States"
    },
    {
      "id": 11971,
      "name": "DUPAGE MEDICAL GROUP LTD",
      "phoneNumber": 6308932210,
      "latitude": 41.9477679,
      "longitude": -88.1193267,
      "address": "Stratford Drive, Bloomingdale, IL 60117, United States of America",
      "city": "BLOOMINGDALE",
      "state": "Illinois",
      "state_code": "IL",
      "country": "United States"
    },
    {
      "id": 11972,
      "name": "",
      "phoneNumber": 8887305220,
      "latitude": 41.8690232,
      "longitude": -87.6314764,
      "address": "West Taylor Street, Chicago, IL 60605, United States of America",
      "city": "CHICAGO",
      "state": "Illinois",
      "state_code": "IL",
      "country": "United States"
    },
    {
      "id": 11973,
      "name": "ALEXIAN BROTHERS BEHAVIORAL HEALTH HOSPITAL",
      "phoneNumber": 8477558090,
      "latitude": 42.0514783,
      "longitude": -88.1303181,
      "address": "Moon Lake Boulevard, Hoffman Estates, IL 60194, United States of America",
      "city": "HOFFMAN ESTATES",
      "state": "Illinois",
      "state_code": "IL",
      "country": "United States"
    },
    {
      "id": 11974,
      "name": "ALEXIAN BROTHERS BEHAVIORAL HEALTH HOSPITAL",
      "phoneNumber": 8477558090,
      "latitude": 42.0514783,
      "longitude": -88.1303181,
      "address": "Moon Lake Boulevard, Hoffman Estates, IL 60194, United States of America",
      "city": "HOFFMAN ESTATES",
      "state": "Illinois",
      "state_code": "IL",
      "country": "United States"
    },
    {
      "id": 11975,
      "name": "CENTRAL DUPAGE PHYSICIAN GROUP",
      "phoneNumber": 6309334800,
      "latitude": 41.874586,
      "longitude": -88.1067164,
      "address": "North Main Street, Wheaton, IL 60187, United States of America",
      "city": "WHEATON",
      "state": "Illinois",
      "state_code": "IL",
      "country": "United States"
    },
    {
      "id": 11976,
      "name": "CENTRAL DUPAGE PHYSICIAN GROUP",
      "phoneNumber": "",
      "latitude": 41.8731919,
      "longitude": -88.15582917,
      "address": "Northwestern Medicine Central DuPage Hospital, 25 North Winfield Road, Winfield, IL 60190, United States of America",
      "city": "WINFIELD",
      "state": "Illinois",
      "state_code": "IL",
      "country": "United States"
    },
    {
      "id": 11977,
      "name": "MEMORIAL PHYSICIAN SERVICES",
      "phoneNumber": 2177267300,
      "latitude": 39.7640866,
      "longitude": -89.725505,
      "address": "Hedley Road, Springfield, IL 62707, United States of America",
      "city": "SPRINGFIELD",
      "state": "Illinois",
      "state_code": "IL",
      "country": "United States"
    },
    {
      "id": 11978,
      "name": "NORTH SHORE UNIVERSITY HEALTHSYSTEM FACULTY PRACTICE ASSOCIATES",
      "phoneNumber": "",
      "latitude": 42.0564416,
      "longitude": -87.7403397,
      "address": "Dinora Ingberman M.D., 9669 Kenton Avenue, Skokie, IL 60076, United States of America",
      "city": "SKOKIE",
      "state": "Illinois",
      "state_code": "IL",
      "country": "United States"
    },
    {
      "id": 11979,
      "name": "NORTH SHORE UNIVERSITY HEALTHSYSTEM FACULTY PRACTICE ASSOCIATES",
      "phoneNumber": "",
      "latitude": 42.06460645,
      "longitude": -87.68446377,
      "address": "Evanston Hospital, 2650 Ridge Avenue, Evanston, IL 60201, United States of America",
      "city": "EVANSTON",
      "state": "Illinois",
      "state_code": "IL",
      "country": "United States"
    },
    {
      "id": 11980,
      "name": "HERE AND NOW COUNSELING LLC.",
      "phoneNumber": 8474500404,
      "latitude": 42.1491338,
      "longitude": -87.7994096,
      "address": "Skokie Boulevard, Northbrook, IL 60035, United States of America",
      "city": "NORTHBROOK",
      "state": "Illinois",
      "state_code": "IL",
      "country": "United States"
    },
    {
      "id": 11981,
      "name": "",
      "phoneNumber": 3123375944,
      "latitude": 41.8918326,
      "longitude": -87.6176875,
      "address": "North McClurg Court, Chicago, IL 60611, United States of America",
      "city": "CHICAGO",
      "state": "Illinois",
      "state_code": "IL",
      "country": "United States"
    },
    {
      "id": 11982,
      "name": "THE UNIVERSITY OF CHICAGO MEDICAL CENTER",
      "phoneNumber": 7737021000,
      "latitude": 41.7931064,
      "longitude": -87.6049723,
      "address": "South Maryland Avenue, Chicago, IL 60637, United States of America",
      "city": "CHICAGO",
      "state": "Illinois",
      "state_code": "IL",
      "country": "United States"
    },
    {
      "id": 11983,
      "name": "THE UNIVERSITY OF CHICAGO MEDICAL CENTER",
      "phoneNumber": "",
      "latitude": 41.7888473,
      "longitude": -87.60359752,
      "address": "Rubloff Intensive Care, 5841 South Maryland Avenue, Chicago, IL 60637, United States of America",
      "city": "CHICAGO",
      "state": "Illinois",
      "state_code": "IL",
      "country": "United States"
    },
    {
      "id": 11984,
      "name": "UNIVERSITY OF CHICAGO",
      "phoneNumber": 7737021000,
      "latitude": 41.7931064,
      "longitude": -87.6049723,
      "address": "South Maryland Avenue, Chicago, IL 60637, United States of America",
      "city": "CHICAGO",
      "state": "Illinois",
      "state_code": "IL",
      "country": "United States"
    },
    {
      "id": 11985,
      "name": "",
      "phoneNumber": 8474801346,
      "latitude": 42.124862,
      "longitude": -87.8292375,
      "address": "Shermer Road, Northbrook, IL 60062, United States of America",
      "city": "NORTHBROOK",
      "state": "Illinois",
      "state_code": "IL",
      "country": "United States"
    },
    {
      "id": 11986,
      "name": "COUNTY OF LAKE",
      "phoneNumber": 8473778800,
      "latitude": 42.308811,
      "longitude": -87.977345,
      "address": "17710 West Peterson Road, Libertyville, IL 60048, United States of America",
      "city": "LIBERTYVILLE",
      "state": "Illinois",
      "state_code": "IL",
      "country": "United States"
    },
    {
      "id": 11987,
      "name": "CONNECTIONS MEDICAL GROUP ASSOCIATES LLC",
      "phoneNumber": 8154186070,
      "latitude": 41.4821844,
      "longitude": -87.9572287,
      "address": "Calistoga Drive, New Lenox, IL 60451, United States of America",
      "city": "NEW LENOX",
      "state": "Illinois",
      "state_code": "IL",
      "country": "United States"
    },
    {
      "id": 11988,
      "name": "SARAH BUSH LINCOLN HEALTH CENTER",
      "phoneNumber": 2172584042,
      "latitude": 39.4885629,
      "longitude": -88.27236626,
      "address": "Sarah Bush Lincoln Health Center, 1000 Health Center Drive, Mattoon, IL 61938, United States of America",
      "city": "MATTOON",
      "state": "Illinois",
      "state_code": "IL",
      "country": "United States"
    },
    {
      "id": 11989,
      "name": "GANESHA INSTITUTE OF NEUROLOGY AND PSYCHIATRY, SC",
      "phoneNumber": 8478166335,
      "latitude": 42.29817,
      "longitude": -88.009156,
      "address": "West Winchester Road, Libertyville, IL 60060, United States of America",
      "city": "LIBERTYVILLE",
      "state": "Illinois",
      "state_code": "IL",
      "country": "United States"
    },
    {
      "id": 11990,
      "name": "SIU PHYSICIANS AND SURGEONS INC",
      "phoneNumber": 2175458000,
      "latitude": 39.8040502,
      "longitude": -89.6540228,
      "address": "East Madison Street, Springfield, IL 62781, United States of America",
      "city": "SPRINGFIELD",
      "state": "Illinois",
      "state_code": "IL",
      "country": "United States"
    },
    {
      "id": 11991,
      "name": "CHICAGO INTEGRATIVE CENTER FOR PSYCHOLOGY LLC",
      "phoneNumber": 8476151698,
      "latitude": 42.2727184,
      "longitude": -87.8712533,
      "address": "North Shore Drive, Lake Bluff, IL 60044, United States of America",
      "city": "LAKE BLUFF",
      "state": "Illinois",
      "state_code": "IL",
      "country": "United States"
    },
    {
      "id": 11992,
      "name": "CHICAGO INTEGRATIVE CENTER FOR PSYCHOLOGY LLC",
      "phoneNumber": 8476151698,
      "latitude": 42.0183061,
      "longitude": -87.7477206,
      "address": "Skokie Boulevard, Skokie, IL 60077, United States of America",
      "city": "SKOKIE",
      "state": "Illinois",
      "state_code": "IL",
      "country": "United States"
    },
    {
      "id": 11993,
      "name": "",
      "phoneNumber": 8476976290,
      "latitude": 42.0354516,
      "longitude": -88.3190127,
      "address": "Market Street, Elgin, IL 60123, United States of America",
      "city": "ELGIN",
      "state": "Illinois",
      "state_code": "IL",
      "country": "United States"
    },
    {
      "id": 11994,
      "name": "BHC STREAMWOOD HOSPITAL INC",
      "phoneNumber": 6308379000,
      "latitude": 42.0129277,
      "longitude": -88.1797804,
      "address": "East Irving Park Road, Streamwood, IL 60107, United States of America",
      "city": "STREAMWOOD",
      "state": "Illinois",
      "state_code": "IL",
      "country": "United States"
    },
    {
      "id": 11995,
      "name": "SUBURBAN BEHAVIORAL HEALTH INC",
      "phoneNumber": 6306139800,
      "latitude": 41.8597307,
      "longitude": -87.9729901,
      "address": "Summit Avenue, Oakbrook Terrace, IL 60181, United States of America",
      "city": "OAKBROOK TERRACE",
      "state": "Illinois",
      "state_code": "IL",
      "country": "United States"
    },
    {
      "id": 11996,
      "name": "ADVOCATE HEALTH AND HOSPITALS CORPORATION",
      "phoneNumber": 7739751600,
      "latitude": 41.9363349,
      "longitude": -87.6514623,
      "address": "West Wellington Avenue, Chicago, IL 60618, United States of America",
      "city": "CHICAGO",
      "state": "Illinois",
      "state_code": "IL",
      "country": "United States"
    },
    {
      "id": 11997,
      "name": "ADVOCATE HEALTH AND HOSPITALS CORPORATION",
      "phoneNumber": 7732967159,
      "latitude": 41.9363349,
      "longitude": -87.6514623,
      "address": "West Wellington Avenue, Chicago, IL 60618, United States of America",
      "city": "CHICAGO",
      "state": "Illinois",
      "state_code": "IL",
      "country": "United States"
    },
    {
      "id": 11998,
      "name": "DUPAGE MEDICAL GROUP LTD",
      "phoneNumber": 6308932210,
      "latitude": 41.9477679,
      "longitude": -88.1193267,
      "address": "Stratford Drive, Bloomingdale, IL 60117, United States of America",
      "city": "BLOOMINGDALE",
      "state": "Illinois",
      "state_code": "IL",
      "country": "United States"
    },
    {
      "id": 11999,
      "name": "THE UNIVERSITY OF CHICAGO MEDICAL CENTER",
      "phoneNumber": 7737021000,
      "latitude": 41.7931064,
      "longitude": -87.6049723,
      "address": "South Maryland Avenue, Chicago, IL 60637, United States of America",
      "city": "CHICAGO",
      "state": "Illinois",
      "state_code": "IL",
      "country": "United States"
    },
    {
      "id": 12000,
      "name": "UNIVERSITY OF CHICAGO",
      "phoneNumber": 7737021000,
      "latitude": 41.7931064,
      "longitude": -87.6049723,
      "address": "South Maryland Avenue, Chicago, IL 60637, United States of America",
      "city": "CHICAGO",
      "state": "Illinois",
      "state_code": "IL",
      "country": "United States"
    },
        {
          "id": 12001,
          "name": "RIVEREDGE HOSPITAL INC",
          "phoneNumber": 7087717000,
          "latitude": 41.8646353,
          "longitude": -87.8240811,
          "address": "Roosevelt Road, Forest Park, IL 60154, United States of America",
          "city": "FOREST PARK",
          "state": "Illinois",
          "state_code": "IL",
          "country": "United States"
        },
        {
          "id": 12002,
          "name": "RIVEREDGE HOSPITAL INC",
          "phoneNumber": 7087717000,
          "latitude": 41.8646353,
          "longitude": -87.8240811,
          "address": "Roosevelt Road, Forest Park, IL 60154, United States of America",
          "city": "FOREST PARK",
          "state": "Illinois",
          "state_code": "IL",
          "country": "United States"
        },
        {
          "id": 12003,
          "name": "SILVER OAKS BEHAVIORAL, LLC",
          "phoneNumber": 8445805000,
          "latitude": 41.5454078,
          "longitude": -87.9870789,
          "address": "Pawlak Parkway, New Lenox, IL, United States of America",
          "city": "NEW LENOX",
          "state": "Illinois",
          "state_code": "IL",
          "country": "United States"
        },
        {
          "id": 12004,
          "name": "BETH LEDVORA MD SC",
          "phoneNumber": 7083615110,
          "latitude": 41.6721408,
          "longitude": -87.7788316,
          "address": "West College Drive, Palos Heights, IL 60463, United States of America",
          "city": "PALOS HEIGHTS",
          "state": "Illinois",
          "state_code": "IL",
          "country": "United States"
        },
        {
          "id": 12005,
          "name": "PRESENCE HEALTHCARE SERVICES",
          "phoneNumber": 8473164000,
          "latitude": 42.0509497,
          "longitude": -87.6881233,
          "address": "Ridge Avenue, Evanston, IL 60208, United States of America",
          "city": "EVANSTON",
          "state": "Illinois",
          "state_code": "IL",
          "country": "United States"
        },
        {
          "id": 12006,
          "name": "PRESENCE HEALTHCARE SERVICES",
          "phoneNumber": 7735258846,
          "latitude": 41.9371665,
          "longitude": -87.6394427,
          "address": "North Sheridan Road, Chicago, IL 60657, United States of America",
          "city": "CHICAGO",
          "state": "Illinois",
          "state_code": "IL",
          "country": "United States"
        },
        {
          "id": 12007,
          "name": "PRESENCE HEALTHCARE SERVICES",
          "phoneNumber": "",
          "latitude": 41.12100695,
          "longitude": -87.87180942,
          "address": "Ascension Saint Mary's Hospital, 500 West Court Street, Kankakee, IL 60901, United States of America",
          "city": "KANKAKEE",
          "state": "Illinois",
          "state_code": "IL",
          "country": "United States"
        },
        {
          "id": 12008,
          "name": "PRESENCE HEALTHCARE SERVICES",
          "phoneNumber": 8159372237,
          "latitude": 41.1205832,
          "longitude": -87.866862,
          "address": "West Court Street, Kankakee, IL 60901, United States of America",
          "city": "KANKAKEE",
          "state": "Illinois",
          "state_code": "IL",
          "country": "United States"
        },
        {
          "id": 12009,
          "name": "PRESENCE HEALTHCARE SERVICES",
          "phoneNumber": 2173372430,
          "latitude": 40.117429,
          "longitude": -88.209886,
          "address": "West Park Street, Urbana, IL 61801, United States of America",
          "city": "URBANA",
          "state": "Illinois",
          "state_code": "IL",
          "country": "United States"
        },
        {
          "id": 12010,
          "name": "THE ROBERT YOUNG CENTER FOR COMMUNITY MENTAL HEALTH",
          "phoneNumber": 3097793048,
          "latitude": 41.5117396,
          "longitude": -90.5760335,
          "address": "17th Street, Rock Island, IL 61201, United States of America",
          "city": "ROCK ISLAND",
          "state": "Illinois",
          "state_code": "IL",
          "country": "United States"
        },
        {
          "id": 12011,
          "name": "MCCD PSYCHIATRY SERVICES PLLC",
          "phoneNumber": 9176345311,
          "latitude": 42.180363,
          "longitude": -87.9294277,
          "address": "Parkway Drive, Lincolnshire, IL 60069, United States of America",
          "city": "LINCOLNSHIRE",
          "state": "Illinois",
          "state_code": "IL",
          "country": "United States"
        },
        {
          "id": 12012,
          "name": "ALEXIAN BROTHERS BEHAVIORAL HEALTH HOSPITAL",
          "phoneNumber": 8477558090,
          "latitude": 42.0514783,
          "longitude": -88.1303181,
          "address": "Moon Lake Boulevard, Hoffman Estates, IL 60194, United States of America",
          "city": "HOFFMAN ESTATES",
          "state": "Illinois",
          "state_code": "IL",
          "country": "United States"
        },
        {
          "id": 12013,
          "name": "ALEXIAN BROTHERS BEHAVIORAL HEALTH HOSPITAL",
          "phoneNumber": 8477558090,
          "latitude": 42.0514783,
          "longitude": -88.1303181,
          "address": "Moon Lake Boulevard, Hoffman Estates, IL 60194, United States of America",
          "city": "HOFFMAN ESTATES",
          "state": "Illinois",
          "state_code": "IL",
          "country": "United States"
        },
        {
          "id": 12014,
          "name": "MID-AMERICA PSYCHIATRIC CONSULTANTS LLC",
          "phoneNumber": 6188767515,
          "latitude": 38.7181683,
          "longitude": -90.1231289,
          "address": "Madison Avenue, Granite City, IL 62040, United States of America",
          "city": "GRANITE CITY",
          "state": "Illinois",
          "state_code": "IL",
          "country": "United States"
        },
        {
          "id": 12015,
          "name": "VADIM BARAM MD INC",
          "phoneNumber": 3145044698,
          "latitude": 38.9188392,
          "longitude": -90.0300806,
          "address": "North Moreland Road, Bethalto, IL 62067, United States of America",
          "city": "BETHALTO",
          "state": "Illinois",
          "state_code": "IL",
          "country": "United States"
        },
        {
          "id": 12016,
          "name": "VADIM BARAM MD INC",
          "phoneNumber": 3145044698,
          "latitude": 38.5571667,
          "longitude": -89.9005672,
          "address": "South Main Street, Shiloh, IL 62269, United States of America",
          "city": "SHILOH",
          "state": "Illinois",
          "state_code": "IL",
          "country": "United States"
        },
        {
          "id": 12017,
          "name": "",
          "phoneNumber": 3099645040,
          "latitude": 41.4731119,
          "longitude": -90.5282429,
          "address": "7th Street, Moline, IL 61265, United States of America",
          "city": "MOLINE",
          "state": "Illinois",
          "state_code": "IL",
          "country": "United States"
        },
        {
          "id": 12018,
          "name": "THE ROBERT YOUNG CENTER FOR COMMUNITY MENTAL HEALTH",
          "phoneNumber": 3097793048,
          "latitude": 41.5117396,
          "longitude": -90.5760335,
          "address": "17th Street, Rock Island, IL 61201, United States of America",
          "city": "ROCK ISLAND",
          "state": "Illinois",
          "state_code": "IL",
          "country": "United States"
        },
        {
          "id": 12019,
          "name": "THE ROBERT YOUNG CENTER FOR COMMUNITY MENTAL HEALTH",
          "phoneNumber": 3097792031,
          "latitude": 41.4993333,
          "longitude": -90.5338513,
          "address": "3rd Street, Moline, IL 61265, United States of America",
          "city": "MOLINE",
          "state": "Illinois",
          "state_code": "IL",
          "country": "United States"
        },
        {
          "id": 12020,
          "name": "CONVENTIONS PSYCHIATRY AND COUNSELING PC",
          "phoneNumber": 6304168289,
          "latitude": 41.7990393,
          "longitude": -88.2006483,
          "address": "Wall Street, Naperville, IL 60555, United States of America",
          "city": "NAPERVILLE",
          "state": "Illinois",
          "state_code": "IL",
          "country": "United States"
        },
        {
          "id": 12021,
          "name": "",
          "phoneNumber": 7739477900,
          "latitude": 41.8061243,
          "longitude": -87.5935423,
          "address": "South Kenwood Avenue, Chicago, IL 60615, United States of America",
          "city": "CHICAGO",
          "state": "Illinois",
          "state_code": "IL",
          "country": "United States"
        },
        {
          "id": 12022,
          "name": "TCA HEALTH INC NFP",
          "phoneNumber": 7739956300232,
          "latitude": 41.858066,
          "longitude": -87.622647,
          "address": "130 East 18th Street, Chicago, IL 60616, United States of America",
          "city": "CHICAGO",
          "state": "Illinois",
          "state_code": "IL",
          "country": "United States"
        },
        {
          "id": 12023,
          "name": "KND DEVELOPMENT 59 LLC",
          "phoneNumber": 7732672622,
          "latitude": 41.9607256,
          "longitude": -87.747219,
          "address": "West Montrose Avenue, Chicago, IL 60641, United States of America",
          "city": "CHICAGO",
          "state": "Illinois",
          "state_code": "IL",
          "country": "United States"
        },
        {
          "id": 12024,
          "name": "HARSHAD M MEHTA MD SC",
          "phoneNumber": 7739477900,
          "latitude": 41.8755616,
          "longitude": -87.6244212,
          "address": "Chicago, IL, United States of America",
          "city": "CHICAGO",
          "state": "Illinois",
          "state_code": "IL",
          "country": "United States"
        },
        {
          "id": 12025,
          "name": "NORTH SHORE UNIVERSITY HEALTHSYSTEM FACULTY PRACTICE ASSOCIATES",
          "phoneNumber": "",
          "latitude": 42.06460645,
          "longitude": -87.68446377,
          "address": "Evanston Hospital, 2650 Ridge Avenue, Evanston, IL 60201, United States of America",
          "city": "EVANSTON",
          "state": "Illinois",
          "state_code": "IL",
          "country": "United States"
        },
        {
          "id": 12026,
          "name": "CARLE HEALTH CARE INCORPORATED",
          "phoneNumber": 8887122753,
          "latitude": 40.117429,
          "longitude": -88.209886,
          "address": "West Park Street, Urbana, IL 61801, United States of America",
          "city": "URBANA",
          "state": "Illinois",
          "state_code": "IL",
          "country": "United States"
        },
        {
          "id": 12027,
          "name": "BHC STREAMWOOD HOSPITAL INC",
          "phoneNumber": 6308379000,
          "latitude": 42.0129277,
          "longitude": -88.1797804,
          "address": "East Irving Park Road, Streamwood, IL 60107, United States of America",
          "city": "STREAMWOOD",
          "state": "Illinois",
          "state_code": "IL",
          "country": "United States"
        },
        {
          "id": 12028,
          "name": "THE BOARD OF TRUSTEES OF THE UNIVERSITY OF ILLINOIS",
          "phoneNumber": 3124334114,
          "latitude": 41.8647846,
          "longitude": -87.6467416,
          "address": "West Maxwell Street, Chicago, IL 60608, United States of America",
          "city": "CHICAGO",
          "state": "Illinois",
          "state_code": "IL",
          "country": "United States"
        },
        {
          "id": 12029,
          "name": "THE BOARD OF TRUSTEES OF THE UNIVERSITY OF ILLINOIS",
          "phoneNumber": "",
          "latitude": 41.86986865,
          "longitude": -87.67184842,
          "address": "Neuropsychiatric Institute (NPI), 912 South Wood Street, Chicago, IL 60612, United States of America",
          "city": "CHICAGO",
          "state": "Illinois",
          "state_code": "IL",
          "country": "United States"
        },
        {
          "id": 12030,
          "name": "",
          "phoneNumber": 7082149349,
          "latitude": 41.8328085,
          "longitude": -87.9289504,
          "address": "Oak Brook, IL 60523, United States of America",
          "city": "OAK BROOK",
          "state": "Illinois",
          "state_code": "IL",
          "country": "United States"
        },
        {
          "id": 12031,
          "name": "",
          "phoneNumber": 8472963442,
          "latitude": 42.0330335,
          "longitude": -87.86499449,
          "address": "Renaissance Drive, Park Ridge, IL 60068, United States of America",
          "city": "PARK RIDGE",
          "state": "Illinois",
          "state_code": "IL",
          "country": "United States"
        },
        {
          "id": 12032,
          "name": "ASSOCIATION FOR INDIVIDUAL DEVELOPMENT",
          "phoneNumber": 6309664300,
          "latitude": 41.764302,
          "longitude": -88.32916,
          "address": "North Highland Avenue, Aurora, IL 60506, United States of America",
          "city": "AURORA",
          "state": "Illinois",
          "state_code": "IL",
          "country": "United States"
        },
        {
          "id": 12033,
          "name": "SPRINGFIELD CLINIC LLP",
          "phoneNumber": 2175287541,
          "latitude": 39.7818657,
          "longitude": -89.6484013,
          "address": "South 6th Street, Springfield, IL 62701, United States of America",
          "city": "SPRINGFIELD",
          "state": "Illinois",
          "state_code": "IL",
          "country": "United States"
        },
        {
          "id": 12034,
          "name": "",
          "phoneNumber": 2243613301,
          "latitude": 42.0483412,
          "longitude": -87.8376968,
          "address": "Golf Mill Center, Niles, IL 60714, United States of America",
          "city": "NILES",
          "state": "Illinois",
          "state_code": "IL",
          "country": "United States"
        },
        {
          "id": 12035,
          "name": "SOUTHERN ILLINOIS HEALTHCARE FOUNDATION, INC.",
          "phoneNumber": 6188572700,
          "latitude": 38.590186,
          "longitude": -90.1692755,
          "address": "Sauget, IL, United States of America",
          "city": "SAUGET",
          "state": "Illinois",
          "state_code": "IL",
          "country": "United States"
        },
        {
          "id": 12036,
          "name": "NORTHWESTERN MEDICAL FACULTY FOUNDATION",
          "phoneNumber": 3126955060,
          "latitude": 41.8910541,
          "longitude": -87.6226513,
          "address": "North Saint Clair Street, Chicago, IL 60611, United States of America",
          "city": "CHICAGO",
          "state": "Illinois",
          "state_code": "IL",
          "country": "United States"
        },
        {
          "id": 12037,
          "name": "BLESSINGCARE CORPORATION",
          "phoneNumber": 2172238400,
          "latitude": 39.60743335,
          "longitude": -90.81492753,
          "address": "Illini Community Hospital, 640 North Clinton Street, Pittsfield, IL 61036, United States of America",
          "city": "PITTSFIELD",
          "state": "Illinois",
          "state_code": "IL",
          "country": "United States"
        },
        {
          "id": 12038,
          "name": "SIU PHYSICIANS AND SURGEONS INC",
          "phoneNumber": 2175458000,
          "latitude": 39.745258,
          "longitude": -90.248122,
          "address": "West Walnut Street, Jacksonville, IL 62650, United States of America",
          "city": "JACKSONVILLE",
          "state": "Illinois",
          "state_code": "IL",
          "country": "United States"
        },
        {
          "id": 12039,
          "name": "SIU PHYSICIANS AND SURGEONS INC",
          "phoneNumber": 2175458000,
          "latitude": 39.8040502,
          "longitude": -89.6540228,
          "address": "East Madison Street, Springfield, IL 62781, United States of America",
          "city": "SPRINGFIELD",
          "state": "Illinois",
          "state_code": "IL",
          "country": "United States"
        },
        {
          "id": 12040,
          "name": "",
          "phoneNumber": 8475599345,
          "latitude": 42.0650699,
          "longitude": -87.7274307,
          "address": "Crawford Avenue, Evanston, IL 60201, United States of America",
          "city": "EVANSTON",
          "state": "Illinois",
          "state_code": "IL",
          "country": "United States"
        },
        {
          "id": 12041,
          "name": "",
          "phoneNumber": 8479985556,
          "latitude": 42.0719584,
          "longitude": -87.7994238,
          "address": "Waukegan Road, Glenview, IL 60029, United States of America",
          "city": "GLENVIEW",
          "state": "Illinois",
          "state_code": "IL",
          "country": "United States"
        },
        {
          "id": 12042,
          "name": "",
          "phoneNumber": 6305037444,
          "latitude": 42.0534439,
          "longitude": -88.1191674,
          "address": "West Higgins Road, Hoffman Estates, IL 60195, United States of America",
          "city": "HOFFMAN ESTATES",
          "state": "Illinois",
          "state_code": "IL",
          "country": "United States"
        },
        {
          "id": 12043,
          "name": "",
          "phoneNumber": 5618709158,
          "latitude": 41.8204152,
          "longitude": -87.9200216,
          "address": "Spinning Wheel Road, Hinsdale, IL 60521, United States of America",
          "city": "HINSDALE",
          "state": "Illinois",
          "state_code": "IL",
          "country": "United States"
        },
        {
          "id": 12044,
          "name": "",
          "phoneNumber": 5618709158,
          "latitude": 41.933331,
          "longitude": -87.644427,
          "address": "2813 North Broadway Street, Chicago, IL 60657, United States of America",
          "city": "CHICAGO",
          "state": "Illinois",
          "state_code": "IL",
          "country": "United States"
        },
        {
          "id": 12045,
          "name": "CONNECTIONS MEDICAL GROUP ASSOCIATES LLC",
          "phoneNumber": 8154186070,
          "latitude": 41.4821844,
          "longitude": -87.9572287,
          "address": "Calistoga Drive, New Lenox, IL 60451, United States of America",
          "city": "NEW LENOX",
          "state": "Illinois",
          "state_code": "IL",
          "country": "United States"
        },
        {
          "id": 12046,
          "name": "ESPERANZA HEALTH CENTERS",
          "phoneNumber": 7735846200,
          "latitude": 41.8271872,
          "longitude": -87.6947406,
          "address": "South California Avenue, Chicago, IL 60629, United States of America",
          "city": "CHICAGO",
          "state": "Illinois",
          "state_code": "IL",
          "country": "United States"
        },
        {
          "id": 12047,
          "name": "SOUTHERN ILLINOIS MEDICAL SERVICES NFP",
          "phoneNumber": 6185495361,
          "latitude": 37.726109,
          "longitude": -89.230907,
          "address": "West Main Street, Carbondale, IL 62901, United States of America",
          "city": "CARBONDALE",
          "state": "Illinois",
          "state_code": "IL",
          "country": "United States"
        },
        {
          "id": 12048,
          "name": "SOUTHERN ILLINOIS HEALTHCARE FOUNDATION, INC.",
          "phoneNumber": 6188572700,
          "latitude": 38.590186,
          "longitude": -90.1692755,
          "address": "Sauget, IL, United States of America",
          "city": "SAUGET",
          "state": "Illinois",
          "state_code": "IL",
          "country": "United States"
        },
        {
          "id": 12049,
          "name": "",
          "phoneNumber": 3127950275,
          "latitude": 42.078398,
          "longitude": -87.82255,
          "address": "2500 East Lake Avenue, Glenview, IL 60026, United States of America",
          "city": "GLENVIEW",
          "state": "Illinois",
          "state_code": "IL",
          "country": "United States"
        },
        {
          "id": 12050,
          "name": "METHODIST MEDICAL CENTER OF ILLINOIS",
          "phoneNumber": 3096724977,
          "latitude": 40.6965599,
          "longitude": -89.5945459,
          "address": "Main Street, Peoria, IL 61602, United States of America",
          "city": "PEORIA",
          "state": "Illinois",
          "state_code": "IL",
          "country": "United States"
        },
        {
          "id": 12051,
          "name": "METROPOLITAN FAMILY SERVICES",
          "phoneNumber": 7733713700,
          "latitude": 41.9954402,
          "longitude": -87.7644711,
          "address": "North Central Avenue, Chicago, IL 60646, United States of America",
          "city": "CHICAGO",
          "state": "Illinois",
          "state_code": "IL",
          "country": "United States"
        },
        {
          "id": 12052,
          "name": "GRAND PRAIRIE SERVICES",
          "phoneNumber": 7084441012,
          "latitude": 41.5061518,
          "longitude": -87.6409731,
          "address": "Lincoln Highway, Chicago Heights, IL 60411, United States of America",
          "city": "CHICAGO HEIGHTS",
          "state": "Illinois",
          "state_code": "IL",
          "country": "United States"
        },
        {
          "id": 12053,
          "name": "GRAND PRAIRIE SERVICES",
          "phoneNumber": 7084441012,
          "latitude": 41.5060126,
          "longitude": -87.6716206,
          "address": "Lincoln Highway, Chicago Heights, IL 60461, United States of America",
          "city": "CHICAGO HEIGHTS",
          "state": "Illinois",
          "state_code": "IL",
          "country": "United States"
        },
        {
          "id": 12054,
          "name": "GRAND PRAIRIE SERVICES",
          "phoneNumber": 7084441012,
          "latitude": 41.5458644,
          "longitude": -87.6939173,
          "address": "Kedzie Avenue, Flossmoor, IL 60422, United States of America",
          "city": "FLOSSMOOR",
          "state": "Illinois",
          "state_code": "IL",
          "country": "United States"
        },
        {
          "id": 12055,
          "name": "SINNISSIPPI CENTERS INC",
          "phoneNumber": 8152846611,
          "latitude": 41.857552,
          "longitude": -89.456373,
          "address": "907 Il Rt 2, Dixon, IL, United States of America",
          "city": "DIXON",
          "state": "Illinois",
          "state_code": "IL",
          "country": "United States"
        },
        {
          "id": 12056,
          "name": "RUSH UNIVERSITY MEDICAL CENTER",
          "phoneNumber": 3129425375,
          "latitude": 41.8744588,
          "longitude": -87.6355742,
          "address": "West Harrison Street, Chicago, IL 60605, United States of America",
          "city": "CHICAGO",
          "state": "Illinois",
          "state_code": "IL",
          "country": "United States"
        },
        {
          "id": 12057,
          "name": "RUSH UNIVERSITY MEDICAL CENTER",
          "phoneNumber": "",
          "latitude": 41.87339795,
          "longitude": -87.67013764,
          "address": "Rush Professional Building, 1725 West Harrison Street, Chicago, IL 60612, United States of America",
          "city": "CHICAGO",
          "state": "Illinois",
          "state_code": "IL",
          "country": "United States"
        },
        {
          "id": 12058,
          "name": "RUSH UNIVERSITY MEDICAL CENTER",
          "phoneNumber": 3125632875,
          "latitude": 41.8769039,
          "longitude": -87.6292416,
          "address": "West Van Buren Street, Chicago, IL 60604, United States of America",
          "city": "CHICAGO",
          "state": "Illinois",
          "state_code": "IL",
          "country": "United States"
        },
        {
          "id": 12059,
          "name": "NORTHWESTERN MEDICAL FACULTY FOUNDATION",
          "phoneNumber": 3126957950,
          "latitude": 41.8941643,
          "longitude": -87.622629,
          "address": "East Erie Street, Chicago, IL 60611, United States of America",
          "city": "CHICAGO",
          "state": "Illinois",
          "state_code": "IL",
          "country": "United States"
        },
        {
          "id": 12060,
          "name": "NORTH SHORE UNIVERSITY HEALTHSYSTEM FACULTY PRACTICE ASSOCIATES",
          "phoneNumber": "",
          "latitude": 42.06460645,
          "longitude": -87.68446377,
          "address": "Evanston Hospital, 2650 Ridge Avenue, Evanston, IL 60201, United States of America",
          "city": "EVANSTON",
          "state": "Illinois",
          "state_code": "IL",
          "country": "United States"
        },
        {
          "id": 12061,
          "name": "OSF MULTI-SPECIALTY GROUP",
          "phoneNumber": 3096835050,
          "latitude": 40.78578,
          "longitude": -89.6696183,
          "address": "North State Route 91, Peoria, IL 61615, United States of America",
          "city": "PEORIA",
          "state": "Illinois",
          "state_code": "IL",
          "country": "United States"
        },
        {
          "id": 12062,
          "name": "OSF MULTI-SPECIALTY GROUP",
          "phoneNumber": 3096616240,
          "latitude": 40.5178098,
          "longitude": -88.9526104,
          "address": "Fort Jesse Road, Normal, IL 61767, United States of America",
          "city": "NORMAL",
          "state": "Illinois",
          "state_code": "IL",
          "country": "United States"
        },
        {
          "id": 12063,
          "name": "ADVOCATE HEALTH AND HOSPITALS CORPORATION",
          "phoneNumber": 8479675010,
          "latitude": 42.0409652,
          "longitude": -87.765962,
          "address": "West Dempster Street, Morton Grove, IL 60068, United States of America",
          "city": "MORTON GROVE",
          "state": "Illinois",
          "state_code": "IL",
          "country": "United States"
        },
        {
          "id": 12064,
          "name": "ADVOCATE HEALTH AND HOSPITALS CORPORATION",
          "phoneNumber": "",
          "latitude": 42.038556,
          "longitude": -87.848889,
          "address": "1875 West Dempster Street, Park Ridge, IL 60068, United States of America",
          "city": "PARK RIDGE",
          "state": "Illinois",
          "state_code": "IL",
          "country": "United States"
        },
        {
          "id": 12065,
          "name": "ADVOCATE HEALTH AND HOSPITALS CORPORATION",
          "phoneNumber": 8474591160,
          "latitude": 42.1532824,
          "longitude": -87.9588225,
          "address": "McHenry Road, Buffalo Grove, IL 60089, United States of America",
          "city": "BUFFALO GROVE",
          "state": "Illinois",
          "state_code": "IL",
          "country": "United States"
        },
        {
          "id": 12066,
          "name": "ADVOCATE HEALTH AND HOSPITALS CORPORATION",
          "phoneNumber": 7733413500,
          "latitude": 41.7212322,
          "longitude": -87.6662758,
          "address": "West 95th Street, Chicago, IL 60617, United States of America",
          "city": "CHICAGO",
          "state": "Illinois",
          "state_code": "IL",
          "country": "United States"
        },
        {
          "id": 12067,
          "name": "EDWARD HEALTH VENTURES",
          "phoneNumber": 6306465200,
          "latitude": 41.916694,
          "longitude": -88.30174,
          "address": "East Main Street, St. Charles, IL, United States of America",
          "city": "ST CHARLES",
          "state": "Illinois",
          "state_code": "IL",
          "country": "United States"
        },
        {
          "id": 12068,
          "name": "EDWARD HEALTH VENTURES",
          "phoneNumber": 6309649400,
          "latitude": 41.766405,
          "longitude": -88.068967,
          "address": "Seven Bridges Drive, Woodridge, IL 60517, United States of America",
          "city": "WOODRIDGE",
          "state": "Illinois",
          "state_code": "IL",
          "country": "United States"
        },
        {
          "id": 12069,
          "name": "",
          "phoneNumber": 6302169098,
          "latitude": 41.83021,
          "longitude": -88.200372,
          "address": "2S631 State Route 59, Warrenville, IL 60555, United States of America",
          "city": "WARRENVILLE",
          "state": "Illinois",
          "state_code": "IL",
          "country": "United States"
        },
        {
          "id": 12070,
          "name": "OSF MULTI-SPECIALTY GROUP",
          "phoneNumber": 3096835050,
          "latitude": 40.78578,
          "longitude": -89.6696183,
          "address": "North State Route 91, Peoria, IL 61615, United States of America",
          "city": "PEORIA",
          "state": "Illinois",
          "state_code": "IL",
          "country": "United States"
        },
        {
          "id": 12071,
          "name": "OSF MULTI-SPECIALTY GROUP",
          "phoneNumber": 3096553453,
          "latitude": 40.117429,
          "longitude": -88.209886,
          "address": "West Park Street, Urbana, IL 61801, United States of America",
          "city": "URBANA",
          "state": "Illinois",
          "state_code": "IL",
          "country": "United States"
        },
        {
          "id": 12072,
          "name": "ADVOCATE HEALTH AND HOSPITALS CORPORATION",
          "phoneNumber": 7732968977,
          "latitude": 41.9363349,
          "longitude": -87.6514623,
          "address": "West Wellington Avenue, Chicago, IL 60618, United States of America",
          "city": "CHICAGO",
          "state": "Illinois",
          "state_code": "IL",
          "country": "United States"
        },
        {
          "id": 12073,
          "name": "",
          "phoneNumber": 6304447003,
          "latitude": 41.513754,
          "longitude": -88.133917,
          "address": "Hammes Avenue, Joliet, IL, United States of America",
          "city": "JOLIET",
          "state": "Illinois",
          "state_code": "IL",
          "country": "United States"
        },
        {
          "id": 12074,
          "name": "",
          "phoneNumber": 8473288358,
          "latitude": 42.0316957,
          "longitude": -87.6801946,
          "address": "Madison Street, Evanston, IL 60202, United States of America",
          "city": "EVANSTON",
          "state": "Illinois",
          "state_code": "IL",
          "country": "United States"
        },
        {
          "id": 12075,
          "name": "HYGIENIC INSTITUTE FOR LASALLE, PERU AND OGLESBY",
          "phoneNumber": 8152230196,
          "latitude": 41.3665422,
          "longitude": -89.1061226,
          "address": "Chartres Street, LaSalle, IL 61301, United States of America",
          "city": "LA SALLE",
          "state": "Illinois",
          "state_code": "IL",
          "country": "United States"
        },
        {
          "id": 12076,
          "name": "",
          "phoneNumber": 3123376888,
          "latitude": 41.8924487,
          "longitude": -87.6242945,
          "address": "North Michigan Avenue, Chicago, IL 60611, United States of America",
          "city": "CHICAGO",
          "state": "Illinois",
          "state_code": "IL",
          "country": "United States"
        },
        {
          "id": 12077,
          "name": "OSF MULTI-SPECIALTY GROUP",
          "phoneNumber": 7084992070,
          "latitude": 41.7209602,
          "longitude": -87.6869959,
          "address": "West 95th Street, Evergreen Park, IL 60805, United States of America",
          "city": "EVERGREEN",
          "state": "Illinois",
          "state_code": "IL",
          "country": "United States"
        },